{
"type": "FeatureCollection",
"name": "Partenaires_engages_2",
"crs": { "type": "name", "properties": { "name": "urn:ogc:def:crs:OGC:1.3:CRS84" } },
"features": [
{ "type": "Feature", "properties": { "id": 1, "Nom": "Commune d'Étaples-sur-Mer" }, "geometry": { "type": "Point", "coordinates": [ 1.615634594841713, 50.535887009628802 ] } },
{ "type": "Feature", "properties": { "id": 2, "Nom": "Pat Rando Nature" }, "geometry": { "type": "Point", "coordinates": [ 1.633159468842334, 50.516053115067294 ] } },
{ "type": "Feature", "properties": { "id": 3, "Nom": "Pat Rando Nature" }, "geometry": { "type": "Point", "coordinates": [ 1.560218101380292, 50.397641804252288 ] } },
{ "type": "Feature", "properties": { "id": 4, "Nom": "Association Rando Nature en Somme" }, "geometry": { "type": "Point", "coordinates": [ 1.641921905842644, 50.183435742987939 ] } },
{ "type": "Feature", "properties": { "id": 5, "Nom": "Découvrons la Baie de Somme" }, "geometry": { "type": "Point", "coordinates": [ 1.627475725923214, 50.214992357320142 ] } },
{ "type": "Feature", "properties": { "id": 6, "Nom": "Doc Nature" }, "geometry": { "type": "Point", "coordinates": [ 1.684076332492787, 50.180416254562154 ] } },
{ "type": "Feature", "properties": { "id": 7, "Nom": "Commune du Touquet-Paris-Plage" }, "geometry": { "type": "Point", "coordinates": [ 1.59414294192879, 50.535887009628802 ] } },
{ "type": "Feature", "properties": { "id": 8, "Nom": "Sens Naturel" }, "geometry": { "type": "Point", "coordinates": [ 1.556606556400434, 50.213453010279544 ] } },
{ "type": "Feature", "properties": { "id": 9, "Nom": "Julie Barbier Photographe" }, "geometry": { "type": "Point", "coordinates": [ 1.565487404711559, 50.35684910767651 ] } },
{ "type": "Feature", "properties": { "id": 10, "Nom": "Maxim Guide en baie de Somme" }, "geometry": { "type": "Point", "coordinates": [ 1.549738700373164, 50.212860953725468 ] } },
{ "type": "Feature", "properties": { "id": 11, "Nom": "Maxim Guide en baie de Somme" }, "geometry": { "type": "Point", "coordinates": [ 1.563948057670964, 50.2580940744568 ] } },
{ "type": "Feature", "properties": { "id": 12, "Nom": "La Vie buissionnière" }, "geometry": { "type": "Point", "coordinates": [ 1.561106186211404, 50.206940388184712 ] } },
{ "type": "Feature", "properties": { "id": 13, "Nom": "La Canoterie" }, "geometry": { "type": "Point", "coordinates": [ 1.544054957454043, 50.211676840617315 ] } }
]
}
